[
  {"iata":"JFK","name":"John F. Kennedy International Airport","city":"New York","state":"NY","country":"United States","lat":40.6413,"lng":-73.7781,"airportType":"large_airport","importance":230,"international":true},
  {"iata":"LGA","name":"LaGuardia Airport","city":"New York","state":"NY","country":"United States","lat":40.7769,"lng":-73.874,"airportType":"large_airport","importance":200,"international":true},
  {"iata":"EWR","name":"Newark Liberty International Airport","city":"Newark","state":"NJ","country":"United States","lat":40.6895,"lng":-74.1745,"airportType":"large_airport","importance":210,"international":true},
  {"iata":"ORF","name":"Norfolk International Airport","city":"Norfolk","state":"VA","country":"United States","lat":36.8946,"lng":-76.2012,"airportType":"medium_airport","importance":110,"international":true},
  {"iata":"PHF","name":"Newport News/Williamsburg International Airport","city":"Newport News","state":"VA","country":"United States","lat":37.1319,"lng":-76.493,"airportType":"medium_airport","importance":85,"international":false},
  {"iata":"RIC","name":"Richmond International Airport","city":"Richmond","state":"VA","country":"United States","lat":37.5052,"lng":-77.3197,"airportType":"medium_airport","importance":120,"international":true},
  {"iata":"DCA","name":"Ronald Reagan Washington National Airport","city":"Washington","state":"DC","country":"United States","lat":38.8512,"lng":-77.0402,"airportType":"large_airport","importance":170,"international":true},
  {"iata":"IAD","name":"Washington Dulles International Airport","city":"Washington","state":"VA","country":"United States","lat":38.9531,"lng":-77.4565,"airportType":"large_airport","importance":175,"international":true},
  {"iata":"BWI","name":"Baltimore/Washington International Airport","city":"Baltimore","state":"MD","country":"United States","lat":39.1774,"lng":-76.6684,"airportType":"large_airport","importance":160,"international":true},
  {"iata":"ATL","name":"Hartsfield-Jackson Atlanta International Airport","city":"Atlanta","state":"GA","country":"United States","lat":33.6407,"lng":-84.4277,"airportType":"large_airport","importance":250,"international":true},
  {"iata":"ORD","name":"Chicago O'Hare International Airport","city":"Chicago","state":"IL","country":"United States","lat":41.9742,"lng":-87.9073,"airportType":"large_airport","importance":225,"international":true},
  {"iata":"MDW","name":"Chicago Midway International Airport","city":"Chicago","state":"IL","country":"United States","lat":41.7868,"lng":-87.7522,"airportType":"medium_airport","importance":150,"international":false},
  {"iata":"LAX","name":"Los Angeles International Airport","city":"Los Angeles","state":"CA","country":"United States","lat":33.9416,"lng":-118.4085,"airportType":"large_airport","importance":235,"international":true},
  {"iata":"SFO","name":"San Francisco International Airport","city":"San Francisco","state":"CA","country":"United States","lat":37.6213,"lng":-122.379,"airportType":"large_airport","importance":210,"international":true},
  {"iata":"SEA","name":"Seattle-Tacoma International Airport","city":"Seattle","state":"WA","country":"United States","lat":47.4502,"lng":-122.3088,"airportType":"large_airport","importance":175,"international":true},
  {"iata":"BOS","name":"Boston Logan International Airport","city":"Boston","state":"MA","country":"United States","lat":42.3656,"lng":-71.0096,"airportType":"large_airport","importance":170,"international":true},
  {"iata":"MIA","name":"Miami International Airport","city":"Miami","state":"FL","country":"United States","lat":25.7959,"lng":-80.2871,"airportType":"large_airport","importance":175,"international":true},
  {"iata":"MCO","name":"Orlando International Airport","city":"Orlando","state":"FL","country":"United States","lat":28.4312,"lng":-81.3081,"airportType":"large_airport","importance":165,"international":true},
  {"iata":"DEN","name":"Denver International Airport","city":"Denver","state":"CO","country":"United States","lat":39.8561,"lng":-104.6737,"airportType":"large_airport","importance":180,"international":true},
  {"iata":"DFW","name":"Dallas/Fort Worth International Airport","city":"Dallas","state":"TX","country":"United States","lat":32.8998,"lng":-97.0403,"airportType":"large_airport","importance":220,"international":true},
  {"iata":"LAS","name":"Harry Reid International Airport","city":"Las Vegas","state":"NV","country":"United States","lat":36.084,"lng":-115.1537,"airportType":"large_airport","importance":170,"international":true},
  {"iata":"SAN","name":"San Diego International Airport","city":"San Diego","state":"CA","country":"United States","lat":32.7338,"lng":-117.1933,"airportType":"large_airport","importance":150,"international":true},
  {"iata":"HNL","name":"Daniel K. Inouye International Airport","city":"Honolulu","state":"HI","country":"United States","lat":21.3187,"lng":-157.9225,"airportType":"medium_airport","importance":135,"international":true},
  {"iata":"ABQ","name":"Albuquerque International Sunport","city":"Albuquerque","state":"NM","country":"United States","lat":35.0402,"lng":-106.609,"airportType":"large_airport","importance":125,"international":true},
  {"iata":"YYZ","name":"Toronto Pearson International Airport","city":"Toronto","state":"ON","country":"Canada","lat":43.6777,"lng":-79.6248,"airportType":"large_airport","importance":190,"international":true},
  {"iata":"YTZ","name":"Billy Bishop Toronto City Airport","city":"Toronto","state":"ON","country":"Canada","lat":43.6275,"lng":-79.3962,"airportType":"medium_airport","importance":110,"international":false},
  {"iata":"YVR","name":"Vancouver International Airport","city":"Vancouver","state":"BC","country":"Canada","lat":49.1967,"lng":-123.1815,"airportType":"large_airport","importance":165,"international":true},
  {"iata":"MEX","name":"Mexico City International Airport","city":"Mexico City","state":"CDMX","country":"Mexico","lat":19.4361,"lng":-99.0719,"airportType":"large_airport","importance":180,"international":true},
  {"iata":"CUN","name":"Cancun International Airport","city":"Cancun","state":"QR","country":"Mexico","lat":21.0365,"lng":-86.8771,"airportType":"large_airport","importance":165,"international":true},
  {"iata":"SJD","name":"Los Cabos International Airport","city":"San Jose del Cabo","state":"BCS","country":"Mexico","lat":23.1518,"lng":-109.721,"airportType":"medium_airport","importance":125,"international":true},
  {"iata":"LHR","name":"Heathrow Airport","city":"London","state":"ENG","country":"United Kingdom","lat":51.47,"lng":-0.4543,"airportType":"large_airport","importance":240,"international":true},
  {"iata":"LGW","name":"Gatwick Airport","city":"London","state":"ENG","country":"United Kingdom","lat":51.1537,"lng":-0.1821,"airportType":"large_airport","importance":180,"international":true},
  {"iata":"STN","name":"Stansted Airport","city":"London","state":"ENG","country":"United Kingdom","lat":51.885,"lng":0.235,"airportType":"large_airport","importance":145,"international":true},
  {"iata":"CDG","name":"Charles de Gaulle Airport","city":"Paris","state":"IDF","country":"France","lat":49.0097,"lng":2.5479,"airportType":"large_airport","importance":210,"international":true},
  {"iata":"ORY","name":"Paris Orly Airport","city":"Paris","state":"IDF","country":"France","lat":48.7262,"lng":2.3652,"airportType":"large_airport","importance":155,"international":true},
  {"iata":"FCO","name":"Leonardo da Vinci International Airport","city":"Rome","state":"RM","country":"Italy","lat":41.7999,"lng":12.2462,"airportType":"large_airport","importance":180,"international":true},
  {"iata":"CIA","name":"Rome Ciampino Airport","city":"Rome","state":"RM","country":"Italy","lat":41.7994,"lng":12.5949,"airportType":"medium_airport","importance":100,"international":true},
  {"iata":"BCN","name":"Barcelona El Prat Airport","city":"Barcelona","state":"CT","country":"Spain","lat":41.2974,"lng":2.0833,"airportType":"large_airport","importance":185,"international":true},
  {"iata":"MAD","name":"Adolfo Suarez Madrid-Barajas Airport","city":"Madrid","state":"MD","country":"Spain","lat":40.4983,"lng":-3.5676,"airportType":"large_airport","importance":185,"international":true},
  {"iata":"AMS","name":"Amsterdam Airport Schiphol","city":"Amsterdam","state":"NH","country":"Netherlands","lat":52.3105,"lng":4.7683,"airportType":"large_airport","importance":190,"international":true},
  {"iata":"LIS","name":"Lisbon Humberto Delgado Airport","city":"Lisbon","state":"LI","country":"Portugal","lat":38.7742,"lng":-9.1342,"airportType":"large_airport","importance":145,"international":true},
  {"iata":"DUB","name":"Dublin Airport","city":"Dublin","state":"LE","country":"Ireland","lat":53.4213,"lng":-6.27,"airportType":"large_airport","importance":155,"international":true},
  {"iata":"ATH","name":"Athens International Airport","city":"Athens","state":"AT","country":"Greece","lat":37.9364,"lng":23.9445,"airportType":"large_airport","importance":145,"international":true},
  {"iata":"IST","name":"Istanbul Airport","city":"Istanbul","state":"IS","country":"Turkey","lat":41.2753,"lng":28.7519,"airportType":"large_airport","importance":210,"international":true},
  {"iata":"DXB","name":"Dubai International Airport","city":"Dubai","state":"DU","country":"United Arab Emirates","lat":25.2532,"lng":55.3657,"airportType":"large_airport","importance":240,"international":true},
  {"iata":"SIN","name":"Singapore Changi Airport","city":"Singapore","state":"SG","country":"Singapore","lat":1.3644,"lng":103.9915,"airportType":"large_airport","importance":220,"international":true},
  {"iata":"BKK","name":"Suvarnabhumi Airport","city":"Bangkok","state":"BK","country":"Thailand","lat":13.69,"lng":100.7501,"airportType":"large_airport","importance":210,"international":true},
  {"iata":"ICN","name":"Incheon International Airport","city":"Seoul","state":"SO","country":"South Korea","lat":37.4602,"lng":126.4407,"airportType":"large_airport","importance":205,"international":true},
  {"iata":"HND","name":"Haneda Airport","city":"Tokyo","state":"TK","country":"Japan","lat":35.5494,"lng":139.7798,"airportType":"large_airport","importance":230,"international":true},
  {"iata":"NRT","name":"Narita International Airport","city":"Tokyo","state":"CH","country":"Japan","lat":35.772,"lng":140.3929,"airportType":"large_airport","importance":200,"international":true},
  {"iata":"SYD","name":"Sydney Airport","city":"Sydney","state":"NSW","country":"Australia","lat":-33.9399,"lng":151.1753,"airportType":"large_airport","importance":205,"international":true},
  {"iata":"MEL","name":"Melbourne Airport","city":"Melbourne","state":"VIC","country":"Australia","lat":-37.669,"lng":144.841,"airportType":"large_airport","importance":175,"international":true},
  {"iata":"DPS","name":"Ngurah Rai International Airport","city":"Bali","state":"BA","country":"Indonesia","lat":-8.7482,"lng":115.1672,"airportType":"medium_airport","importance":155,"international":true},
  {"iata":"GIG","name":"Rio de Janeiro-Galeao International Airport","city":"Rio de Janeiro","state":"RJ","country":"Brazil","lat":-22.809,"lng":-43.2506,"airportType":"large_airport","importance":175,"international":true},
  {"iata":"SDU","name":"Santos Dumont Airport","city":"Rio de Janeiro","state":"RJ","country":"Brazil","lat":-22.9105,"lng":-43.1631,"airportType":"medium_airport","importance":125,"international":false},
  {"iata":"GRU","name":"Sao Paulo-Guarulhos International Airport","city":"Sao Paulo","state":"SP","country":"Brazil","lat":-23.4356,"lng":-46.4731,"airportType":"large_airport","importance":195,"international":true},
  {"iata":"CGH","name":"Sao Paulo-Congonhas Airport","city":"Sao Paulo","state":"SP","country":"Brazil","lat":-23.6281,"lng":-46.6566,"airportType":"medium_airport","importance":130,"international":false},
  {"iata":"CPT","name":"Cape Town International Airport","city":"Cape Town","state":"WC","country":"South Africa","lat":-33.9715,"lng":18.6021,"airportType":"large_airport","importance":125,"international":true}
]
